{
"type": "FeatureCollection",
"name": "museum",
"crs": { "type": "name", "properties": { "name": "urn:ogc:def:crs:OGC:1.3:CRS84" } },
"features": [
{ "type": "Feature", "properties": { "NAME": "Пожарно-спасательная часть №11, 24 отряд ФПС ГПС по Кемеровской области", "CITY": "Новокузнецк", "ADDRESS1": "Космическое шоссе, 16а","PHOTO":"./photos/pozhar.jpg","URL":"https://42.mchs.gov.ru/", "TEL": "+7 (3843) 59–18–13, +7 (3843) 59–32–77", "OPIS": "Время работы с 8 до 17, обед с 13 до 14 сб-вс выходные" }, "geometry": { "type": "Point", "coordinates": [ 87.257251, 53.872162 ] } },
{ "type": "Feature", "properties": { "NAME": "Пожарно-спасательная часть №1, 11 отряд ФПС по Кемеровской области", "CITY": "Новокузнецк", "ADDRESS1": "Вологодского проезд, 1","PHOTO":"https://sun9-17.userapi.com/impf/c856032/v856032587/442e4/jES4Hrlh3tE.jpg?size=1000x667&quality=96&sign=a164e6477fee3a9d628fc2091b9557c8&c_uniq_tag=HOkajx2-BubEcjazZopvD6Dc_HEvB8iHlvxowHi34WQ&type=album","URL":"https://42.mchs.gov.ru/", "TEL": "+7 (3843) 46–44–18", "OPIS": "Время работы с 8 до 17, обед с 13 до 14 сб-вс выходные" }, "geometry": { "type": "Point", "coordinates": [ 87.113991, 53.771252 ] } },
{ "type": "Feature", "properties": { "NAME": "Пожарно-спасательная часть №6, агентство по защите населения и территории по Кемеровской области", "CITY": "Новокузнецк", "ADDRESS1": "Левашова, 2Б","PHOTO":"./photos/pozhar.jpg","URL":"https://42.mchs.gov.ru/", "TEL": "+7 (3843) 32–40–55", "OPIS": "Время работы с 8 до 17, обед с 13 до 14 сб-вс выходные" }, "geometry": { "type": "Point", "coordinates": [ 87.250842, 53.735007 ] } },
{ "type": "Feature", "properties": { "NAME": "Пожарно-спасательная часть №2, 11 отряд ФПС по Кемеровской области", "CITY": "Новокузнецк", "ADDRESS1": "Ленина, 80","PHOTO":"./photos/pozhar.jpg","URL":"https://42.mchs.gov.ru/", "TEL": "+7 (3843) 377–213, +7 (3843) 377–231", "OPIS": "Время работы с 8 до 17, обед с 13 до 14 сб-вс выходные" }, "geometry": { "type": "Point", "coordinates": [ 87.217868, 53.782486 ] } },
{ "type": "Feature", "properties": { "NAME": "23 отряд ОФПС ГПС по Кемеровской области, ФКУ", "CITY": "Новокузнецк", "ADDRESS1": "Коммунальная, 17","PHOTO":"./photos/pozhar.jpg","URL":"https://42.mchs.gov.ru/", "TEL": "+7 (3843) 79–48–52, +7 (3843) 79–21–25", "OPIS": "Время работы с 8 до 17, обед с 13 до 14 сб-вс выходные" }, "geometry": { "type": "Point", "coordinates": [ 87.081942, 53.772888 ] } },
{ "type": "Feature", "properties": { "NAME": "Пожарно-спасательная часть №10, 23 отряд ФПС ГПС по Кемеровской области", "CITY": "Новокузнецк", "ADDRESS1": "Кондомское шоссе, 39","PHOTO":"./photos/pozhar.jpg","URL":"https://42.mchs.gov.ru/", "TEL": "+7 (3843) 70–67–01, +7 (3843) 70–67–42", "OPIS": "Время работы с 8 до 17, обед с 13 до 14 сб-вс выходные" }, "geometry": { "type": "Point", "coordinates": [ 87.200822, 53.721015 ] } },
{ "type": "Feature", "properties": { "NAME": "Пожарная часть №7, 23 отряд ОФПС ГПС по Кемеровской области", "CITY": "Новокузнецк", "ADDRESS1": "Коммунальная, 17","PHOTO":"./photos/pozhar.jpg","URL":"https://42.mchs.gov.ru/", "TEL": "+7 (3843) 79–25–87, +7 (3843) 79–25–97, +7 (3843) 79–25–93", "OPIS": "Время работы с 8 до 17, обед с 13 до 14 сб-вс выходные" }, "geometry": { "type": "Point", "coordinates": [ 87.081942, 53.772888 ] } },
{ "type": "Feature", "properties": { "NAME": "Пожарно-спасательная часть №5, 11 отряд ФПС по Кемеровской области", "CITY": "Новокузнецк", "ADDRESS1": "Авиаторов проспект, 27","PHOTO":"./photos/pozhar.jpg","URL":"https://42.mchs.gov.ru/", "TEL": "+7 (3843) 61–40–57, +7 (3843) 61–67–68", "OPIS": "Время работы с 8 до 17, обед с 13 до 14 сб-вс выходные" }, "geometry": { "type": "Point", "coordinates": [ 87.115685, 53.898394 ] } },
{ "type": "Feature", "properties": { "NAME": "Пожарно-спасательная часть №3, 11 отряд ФПС по Кемеровской области", "CITY": "Новокузнецк", "ADDRESS1": "Мелькомбинатовский переулок, 2","PHOTO":"./photos/pozhar.jpg","URL":"https://42.mchs.gov.ru/", "TEL": "+7 (3843) 71–91–94, +7 (3843) 71–98–58", "OPIS": "Время работы с 8 до 17, обед с 13 до 14 сб-вс выходные" }, "geometry": { "type": "Point", "coordinates": [ 87.128654, 53.740851 ] } },
{ "type": "Feature", "properties": { "NAME": "11 отряд ФПС по Кемеровской области, ФГКУ", "CITY": "Новокузнецк", "ADDRESS1": "Пионерский проспект, 3а", "TEL": "+7 (3843) 74–71–02, +7 (3843) 74–37–76, +7 (3843) 74–54–44, +7 (3843) 74–43–04","PHOTO":"https://www.city-n.ru/upload/2016/11/22/388019_207929_big.jpg","URL":"https://42.mchs.gov.ru/", "OPIS": "Время работы с 8 до 17, обед с 13 до 14 сб-вс выходные" }, "geometry": { "type": "Point", "coordinates": [ 87.104264, 53.76141 ] } },
{ "type": "Feature", "properties": { "NAME": "Пожарная часть №13, 11 отряд ФПС по Кемеровской области", "CITY": "Новокузнецк", "ADDRESS1": "40 лет ВЛКСМ, 1е","PHOTO":"./photos/pozhar.jpg","URL":"https://42.mchs.gov.ru/", "TEL": "+7 (3843) 52–80–80, +7 (3843) 52–80–60, +7 (3843) 52–80–87", "OPIS": "Время работы с 8 до 17, обед с 13 до 14 сб-вс выходные" }, "geometry": { "type": "Point", "coordinates": [ 87.190494, 53.837734 ] } },
{ "type": "Feature", "properties": { "NAME": "Пожарно-спасательная часть №8, 11 отряд ФПС по Кемеровской области", "CITY": "Новокузнецк", "ADDRESS1": "Димитрова, 39","PHOTO":"./photos/pozhar.jpg","URL":"https://42.mchs.gov.ru/", "TEL": "+7 (3843) 73–46–98", "OPIS": "Время работы с 8 до 17, обед с 13 до 14 сб-вс выходные Именно эта пожарная часть встречает гостей города, охраняя от пожаров часть Куйбышевского района, называемого в народе «воротами Новокузнецка». Район выезда части не самый большой по территории, но очень серьезный. Малая доля его приходится на многоэтажную застройку Дальнего Куйбышево, в основно же это малоэтажный частный сектор, который ребята прикрывают вместе с третьей и девятой частью, нередко перекрывая друг друга на пожарах." }, "geometry": { "type": "Point", "coordinates": [ 87.049305, 53.750229 ] } },
{ "type": "Feature", "properties": { "NAME": "Пожарная часть №9, 11 отряд ФПС по Кемеровской области", "CITY": "Новокузнецк", "ADDRESS1": "Кубинская, 23Б","PHOTO":"./photos/pozhar.jpg","URL":"https://42.mchs.gov.ru/", "TEL": null, "OPIS": "Время работы с 8 до 17, обед с 13 до 14 сб-вс выходные" }, "geometry": { "type": "Point", "coordinates": [ 86.961896, 53.676453 ] } },
{ "type": "Feature", "properties": { "NAME": "Пожарная часть №4, 11 отряд ФПС по Кемеровской области", "CITY": "Новокузнецк", "ADDRESS1": "Тульская, 33","PHOTO":"./photos/pozhar.jpg","URL":"https://42.mchs.gov.ru/", "TEL": "+7 (3843) 92–03–18", "OPIS": "Время работы с 8 до 17, обед с 13 до 14 сб-вс выходные" }, "geometry": { "type": "Point", "coordinates": [ 87.303025, 53.789078 ] } }
]
}
